{"type":"Topology","arcs":[],"objects":{"Labels":{"type":"GeometryCollection","geometries":[{"type":"Point","coordinates":[-119.80805982417272,47.364907426095556],"properties":{"Id":0,"Name":"WASHINGTON","Alignment":"center","Category":"state"}},{"type":"Point","coordinates":[-120.6535531774018,43.878140105856254],"properties":{"Id":0,"Name":"OREGON","Alignment":"center","Category":"state"}},{"type":"Point","coordinates":[-108.75347707359418,47.205943979554455],"properties":{"Id":0,"Name":"MONTANA","Alignment":"center","Category":"state"}},{"type":"Point","coordinates":[-114.40791025942659,43.32177671135514],"properties":{"Id":0,"Name":"IDAHO","Alignment":"center","Category":"state"}},{"type":"Point","coordinates":[-107.55410882090334,43.091389636939255],"properties":{"Id":0,"Name":"WYOMING","Alignment":"center","Category":"state"}},{"type":"Point","coordinates":[-105.7547418652423,38.62258973270528],"properties":{"Id":0,"Name":"COLORADO","Alignment":"center","Category":"state"}},{"type":"Point","coordinates":[-111.68555671460616,38.94880244170846],"properties":{"Id":0,"Name":"UTAH","Alignment":"center","Category":"state"}},{"type":"Point","coordinates":[-117.17538116299711,39.85255075655366],"properties":{"Id":0,"Name":"NEVADA","Alignment":"center","Category":"state"}},{"type":"Point","coordinates":[-119.39939529885861,36.36944209482916],"properties":{"Id":0,"Name":"CALIFORNIA","Alignment":"center","Category":"state"}},{"type":"Point","coordinates":[-111.80554452224631,35.33180428877069],"properties":{"Id":0,"Name":"ARIZONA","Alignment":"center","Category":"state"}},{"type":"Point","coordinates":[-106.03801312299305,34.34479210053988],"properties":{"Id":0,"Name":"NEW MEXICO","Alignment":"center","Category":"state"}},{"type":"Point","coordinates":[-122.59792563050496,45.303980793576635],"properties":{"Id":0,"Name":"Portland","Alignment":"center","Category":"city"}},{"type":"Point","coordinates":[-122.20042559429072,47.52753183992324],"properties":{"Id":0,"Name":"Seattle","Alignment":"left","Category":"city"}},{"type":"Point","coordinates":[-122.07839925928442,37.719870353743715],"properties":{"Id":0,"Name":"San Francisco","Alignment":"left","Category":"city"}},{"type":"Point","coordinates":[-111.83611880487723,40.62014019627045],"properties":{"Id":0,"Name":"Salt Lake City","Alignment":"center","Category":"city"}},{"type":"Point","coordinates":[-106.50928395805552,35.30674474684195],"properties":{"Id":0,"Name":"Albuquerque","Alignment":"left","Category":"city"}},{"type":"Point","coordinates":[-112.02649129080994,33.21244953030614],"properties":{"Id":0,"Name":"Phoenix","Alignment":"center","Category":"city"}},{"type":"Point","coordinates":[-116.00625624847139,43.72910749329967],"properties":{"Id":0,"Name":"Boise","Alignment":"left","Category":"city"}},{"type":"Point","coordinates":[-104.77000934519836,39.677457926166646],"properties":{"Id":0,"Name":"Denver","Alignment":"left","Category":"city"}},{"type":"Point","coordinates":[-115.33840726854714,36.099869414349385],"properties":{"Id":0,"Name":"Las Vegas","Alignment":"right","Category":"city"}}]}},"crs":{"type":"name","properties":{"name":"urn:ogc:def:crs:OGC:1.3:CRS84"}}}